V_Name,Country,Latitude,Longitude
West Eifel Volcanic Field,Germany,50.17,6.85
Chane des Puys,France,45.775,2.97
Olot Volcanic Field,Spain,42.17,2.53
Calatrava Volcanic Field,Spain,38.87,-4.02
Larderello,Italy,43.25,10.87
Vulsini,Italy,42.6,11.93
Alban Hills,Italy,41.73,12.7
Campi Flegrei,Italy,40.827,14.139
Vesuvius,Italy,40.821,14.426
Ischia,Italy,40.73,13.897
Palinuro,Italy,39.48,14.83
Stromboli,Italy,38.789,15.213
Panarea,Italy,38.63,15.07
Lipari,Italy,38.48,14.95
Vulcano,Italy,38.404,14.962
Etna,Italy,37.734,15.004
Campi Flegrei Mar Sicilia,Italy,37.1,12.7
Pantelleria,Italy,36.77,12.02
Methana,Greece,37.615,23.336
M?los,Greece,36.699,24.439
Santorini,Greece,36.404,25.396
Nisyros,Greece,36.586,27.16
Yali,Greece,36.671,27.14
Kula,Turkey,38.58,28.52
Karapinar Field,Turkey,37.67,33.65
Hasan Dagi,Turkey,38.13,34.17
G?ll? Dag,Turkey,38.25,34.57
Acig?l-Nevsehir,Turkey,38.57,34.52
Erciyes Dagi,Turkey,38.52,35.48
Karaca Dag,Turkey,37.67,39.83
Nemrut Dagi,Turkey,38.65,42.23
S?phan Dagi,Turkey,38.92,42.82
Girekol Tepe,Turkey,39.192,43.217
Tend?rek Dagi,Turkey,39.37,43.87
Ararat,Turkey,39.7,44.3
Kars Plateau,Turkey,40.75,43.25
Elbrus,Russia,43.33,42.45
Kasbek,Georgia,42.7,44.5
Kabargin Oth Group,Georgia,42.55,44
Unnamed,Georgia,42.45,44.25
Unnamed,Georgia,41.55,43.6
Aragats,Armenia,40.53,44.2
Ghegam Ridge,Armenia,40.275,44.75
Dar-Alages,Armenia,39.7,45.542
Porak,Armenia-Azerbaijan,40.02,45.78
Tskhouk-Karckar,Armenia-Azerbaijan,39.73,46.02
"Tair, Jebel at",Yemen,15.55,41.83
Zubair Group,Yemen,15.05,42.18
Zukur,Yemen,14.02,42.75
Hanish,Yemen,13.72,42.73
Jalua,Eritrea,15.042,39.82
Alid,Eritrea,14.88,39.92
Dallol,Ethiopia,14.242,40.3
Gada Ale,Ethiopia,13.975,40.408
Alu,Ethiopia,13.825,40.508
Dalaffilla,Ethiopia,13.792,40.55
Borale Ale,Ethiopia,13.725,40.6
Erta Ale,Ethiopia,13.6,40.67
Ale Bagu,Ethiopia,13.52,40.63
Hayli Gubbi,Ethiopia,13.5,40.72
Dubbi,Eritrea,13.58,41.808
Nabro,Eritrea,13.37,41.7
Mallahle,Ethiopia-Eritrea,13.27,41.65
Sork Ale,Ethiopia-Eritrea,13.18,41.725
Asavyo,Ethiopia,13.07,41.6
Mat Ala,Ethiopia,13.1,41.15
Tat Ali,Ethiopia,13.28,41.07
Borawli,Ethiopia,13.3,40.98
Afder?,Ethiopia,13.08,40.85
Ma Alalta,Ethiopia,13.02,40.2
Alayta,Ethiopia,12.88,40.57
Dabbahu,Ethiopia,12.6,40.48
Dabbayra,Ethiopia,12.38,40.07
Manda Hararo,Ethiopia,12.17,40.82
Groppo,Ethiopia,11.73,40.25
Kurub,Ethiopia,11.88,41.208
Borawli,Ethiopia,11.63,41.45
Manda-Inakir,Ethiopia-Djibouti,12.38,42.2
Mousa Alli,Ethiopia-Eritrea-Djibouti,12.47,42.4
Gufa,Eritrea-Djibouti,12.55,42.53
Assab Volcanic Field,Eritrea,12.95,42.43
Ardouk?ba,Djibouti,11.58,42.47
Manda Gargori,Ethiopia,11.75,41.48
Dama Ali,Ethiopia,11.28,41.63
Gabillema,Ethiopia,11.08,41.27
Yangudi,Ethiopia,10.58,41.042
Ayelu,Ethiopia,10.082,40.702
Adwa,Ethiopia,10.07,40.84
Hertali,Ethiopia,9.78,40.33
Liado Hayk,Ethiopia,9.57,40.28
Dofen,Ethiopia,9.35,40.13
Fentale,Ethiopia,8.975,39.93
Beru,Ethiopia,8.95,39.75
Kone,Ethiopia,8.8,39.692
Unnamed,Ethiopia,8.7,39.63
Boset-Bericha,Ethiopia,8.558,39.475
Bishoftu Volcanic Field,Ethiopia,8.78,38.98
Unnamed,Ethiopia,8.62,38.95
Sodore,Ethiopia,8.43,39.35
Gedamsa,Ethiopia,8.35,39.18
Bora-Bericcio,Ethiopia,8.27,39.03
Tullu Moje,Ethiopia,8.158,39.13
Unnamed,Ethiopia,8.07,39.07
East Zway,Ethiopia,7.95,38.93
Butajiri-Silti Field,Ethiopia,8.05,38.35
Alutu,Ethiopia,7.77,38.78
O'a Caldera(s),Ethiopia,7.47,38.58
Corbetti Caldera(s),Ethiopia,7.18,38.43
Bilate River Field,Ethiopia,7.07,38.1
Tepi,Ethiopia,7.42,35.43
Hobicha Caldera(s),Ethiopia,6.78,37.83
Chiracha,Ethiopia,6.65,38.12
Tosa Sucha,Ethiopia,5.93,37.57
Unnamed,Ethiopia,5.65,37.67
Korath Range,Ethiopia,5.1,35.88
Mega Basalt Field,Ethiopia-Kenya,4.08,37.42
North Island,Kenya,4.07,36.05
Central Island,Kenya,3.5,36.042
South Island,Kenya,2.63,36.6
Marsabit,Kenya,2.32,37.97
"Barrier, The",Kenya,2.32,36.57
Namarunu,Kenya,1.98,36.43
Segererua Plateau,Kenya,1.57,37.9
Emuruangogolak,Kenya,1.5,36.33
Silali,Kenya,1.15,36.23
Paka,Kenya,0.92,36.18
Korosi,Kenya,0.77,36.12
Ol Kokwe,Kenya,0.62,36.075
Nyambeni Hills,Kenya,0.23,37.87
Menengai,Kenya,-0.2,36.07
Homa Mountain,Kenya,-0.38,34.5
Elmenteita Badlands,Kenya,-0.52,36.27
"Eburru, Ol Doinyo",Kenya,-0.65,36.22
Olkaria,Kenya,-0.904,36.292
Longonot,Kenya,-0.914,36.446
Suswa,Kenya,-1.175,36.35
"Lengai, Ol Doinyo",Tanzania,-2.764,35.914
Chyulu Hills,Kenya,-2.68,37.88
Kilimanjaro,Tanzania,-3.07,37.35
Meru,Tanzania,-3.25,36.75
Igwisi Hills,Tanzania,-4.891,31.93
Unnamed,Tanzania,-8.624,33.583
SW Usangu Basin,Tanzania,-8.75,33.8
Ngozi,Tanzania,-8.97,33.57
Izumbwe-Mpoli,Tanzania,-8.93,33.4
Rungwe,Tanzania,-9.13,33.67
Kyejo,Tanzania,-9.23,33.78
Fort Portal,Uganda,0.7,30.25
Kyatwa,Uganda,0.45,30.25
Katwe-Kikorongo,Uganda,-0.08,29.92
Bunyaruguru,Uganda,-0.2,30.08
Katunga,Uganda,-0.471,30.191
May-ya-moto,DR Congo,-0.93,29.33
Nyamuragira,DR Congo,-1.408,29.2
Nyiragongo,DR Congo,-1.52,29.25
Karisimbi,DR Congo-Rwanda,-1.5,29.45
Visoke,DR Congo-Rwanda,-1.47,29.492
Muhavura,Uganda-Rwanda,-1.38,29.67
Bufumbira,Uganda,-1.23,29.72
Tshibinda,DR Congo,-2.32,28.75
Sao Tome,Sao Tome and Principe,0.2,6.58
San Carlos,Equatorial Guinea,3.35,8.52
San Joaquin,Equatorial Guinea,3.35,8.63
Santa Isabel,Equatorial Guinea,3.58,8.75
Cameroon,Cameroon,4.203,9.17
Tombel Graben,Cameroon,4.75,9.67
Manengouba,Cameroon,5.03,9.83
Oku Volcanic Field,Cameroon,6.25,10.5
Ngaoundere Plateau,Cameroon,7.25,13.67
Biu Plateau,Nigeria,10.75,12
Todra Volcanic Field,Niger,17.68,8.5
Tin Zaouatene Volcanic Field,Mali,19.83,2.83
In Ezzane Volcanic Field,Algeria-Niger,23,10.83
Tahalra Volcanic Field,Algeria,22.67,5
Atakor Volcanic Field,Algeria,23.33,5.83
Manzaz Volcanic Field,Algeria,23.92,5.83
Haruj,Libya,27.25,17.5
Wau-en-Namus,Libya,25.05,17.55
"T?h, Tarso",Chad,21.33,16.33
"Toussid?, Tarso",Chad,21.03,16.45
"Voon, Tarso",Chad,20.92,17.28
"Koussi, Emi",Chad,19.8,18.53
"Marra, Jebel",Sudan,12.95,24.27
Kutum Volcanic Field,Sudan,14.57,25.85
Meidob Volcanic Field,Sudan,15.32,26.47
Bayuda Volcanic Field,Sudan,18.33,32.75
"Umm Arafieb, Jebel",Sudan,18.17,33.83
Sharat Kovakab,Syria,36.53,40.85
Unnamed,Syria,36.67,37
Golan Heights,Syria,33.1,35.97
Unnamed,Syria,33,36.63
Es Safa,Syria,33.25,37.07
"Druze, Jabal ad",Syria,32.658,36.425
"Harrah, Al",Saudi Arabia,31.08,38.42
"Rahah, Harrat ar",Saudi Arabia,27.8,36.17
"'Uwayrid, Harrat",Saudi Arabia,27.08,37.25
"Lunayyir, Harrat",Saudi Arabia,25.17,37.75
"Ithnayn, Harrat",Saudi Arabia,26.58,40.2
"Khaybar, Harrat",Saudi Arabia,25,39.92
"Rahat, Harrat",Saudi Arabia,23.08,39.78
"Kishb, Harrat",Saudi Arabia,22.8,41.38
"Birk, Harrat al",Saudi Arabia,18.37,41.63
"Yar, Jabal",Saudi Arabia,17.05,42.83
"Arhab, Harra of",Yemen,15.63,44.08
"Marha, Jabal el-",Yemen,15.245,44.236
"Haylan, Jabal",Yemen,15.43,44.78
"Dhamar, Harras of",Yemen,14.57,44.67
Unnamed,Yemen,12.25,45
"Saw?d, Harra es-",Yemen,13.58,46.12
"Bal Haf, Harra of",Yemen,14.05,48.33
Bir Borhut,Yemen,15.55,50.63
Unnamed,Iran-Azerbaijan,39.25,45.17
Sahand,Iran,37.75,46.43
Sabalan,Iran,38.25,47.92
Damavand,Iran,35.951,52.109
Qal'eh Hasan Ali,Iran,29.4,57.57
Bazman,Iran,28.07,60
Unnamed,Iran,28.17,60.67
Taftan,Iran,28.6,61.13
Dacht-i-Navar Group,Afghanistan,33.95,67.92
Vakak Group,Afghanistan,34.25,67.97
Tor Zawar,Pakistan,30.479,67.492
"Grille, La",Comoros,-11.47,43.33
Mayotte Island,France,-12.83,45.17
Karthala,Comoros,-11.75,43.38
Ambre-Bobaomby,Madagascar,-12.6,49.15
Nosy-Be,Madagascar,-13.32,48.48
Ankaizina Field,Madagascar,-14.3,48.67
Itasy Volcanic Field,Madagascar,-19,46.77
Ankaratra Field,Madagascar,-19.4,47.2
"Fournaise, Piton de la",France,-21.231,55.713
Boomerang Seamount,France,-37.721,77.825
Amsterdam Island,France,-37.83,77.52
St. Paul,France,-38.72,77.53
Heard,Australia,-53.106,73.513
McDonald Islands,Australia,-53.03,72.6
Kerguelen Islands,France,-49.58,69.5
"Est, Ile de l'",France,-46.43,52.2
"Possession, Ile de la",France,-46.42,51.75
"Cochons, Ile aux",France,-46.1,50.23
Prince Edward Island,South Africa,-46.63,37.95
Marion Island,South Africa,-46.9,37.75
Unnamed,India,11.75,80.75
Kaikohe-Bay of Islands,New Zealand,-35.3,173.9
Whangarei,New Zealand,-35.75,174.27
Auckland Field,New Zealand,-36.9,174.87
Mayor Island,New Zealand,-37.28,176.25
Taranaki [Egmont],New Zealand,-39.3,174.07
White Island,New Zealand,-37.52,177.18
Okataina,New Zealand,-38.12,176.5
Reporoa,New Zealand,-38.42,176.33
Maroa,New Zealand,-38.42,176.08
Taupo,New Zealand,-38.82,176
Tongariro,New Zealand,-39.13,175.642
Ruapehu,New Zealand,-39.28,175.57
Clark,New Zealand,-36.446,177.839
Tangaroa,New Zealand,-36.321,178.028
Rumble V,New Zealand,-36.142,178.196
Rumble IV,New Zealand,-36.13,178.05
Rumble III,New Zealand,-35.745,178.478
Rumble II West,New Zealand,-35.353,178.527
Healy,New Zealand,-35.004,178.973
Brothers,New Zealand,-34.875,179.075
Volcano W,New Zealand,-31.85,-179.18
Havre Seamount,New Zealand,-31.11,179.04
Curtis Island,New Zealand,-30.542,-178.561
Macauley Island,New Zealand,-30.2,-178.47
Giggenbach,New Zealand,-30.036,-178.712
Raoul Island,New Zealand,-29.27,-177.92
Monowai Seamount,New Zealand,-25.887,-177.188
Unnamed,Undersea Features,-24.8,-177.02
Unnamed,Tonga,-21.38,-175.65
Unnamed,Tonga,-21.15,-175.75
Unnamed,Tonga,-20.85,-175.53
Hunga Tonga-Hunga Ha'apai,Tonga,-20.57,-175.38
Falcon Island,Tonga,-20.32,-175.42
Tofua,Tonga,-19.75,-175.07
Kao,Tonga,-19.67,-175.03
Metis Shoal,Tonga,-19.18,-174.87
Home Reef,Tonga,-18.992,-174.775
Late,Tonga,-18.806,-174.65
Unnamed,Tonga,-18.325,-174.365
Fonualei,Tonga,-18.02,-174.325
Tafahi,Tonga,-15.85,-173.72
Curacoa,Tonga,-15.62,-173.67
Niuafo'ou,Tonga,-15.6,-175.63
Tafu-Maka,Tonga,-15.37,-174.23
West Mata,Tonga,-15.1,-173.75
Niua Tahi,Tonga,-15.42,-174.02
Vailulu'u,United States,-14.215,-169.058
Ta'u,United States,-14.23,-169.454
Ofu-Olosega,United States,-14.175,-169.618
Tutuila,United States,-14.295,-170.7
Upolu,Samoa,-13.935,-171.72
Savai'i,Samoa,-13.612,-172.525
Wallis Islands,France,-13.3,-176.17
Taveuni,Fiji,-16.82,-179.97
Koro,Fiji,-17.32,179.4
Nabukelevu,Fiji,-19.12,177.98
St. Andrew Strait,Papua New Guinea,-2.38,147.35
Baluan,Papua New Guinea,-2.57,147.28
Unnamed,Papua New Guinea,-3.03,147.78
Blup Blup,Papua New Guinea,-3.507,144.605
Kadovar,Papua New Guinea,-3.63,144.631
Bam,Papua New Guinea,-3.613,144.818
Boisa,Papua New Guinea,-3.994,144.963
Manam,Papua New Guinea,-4.08,145.037
Karkar,Papua New Guinea,-4.649,145.964
Unnamed,Papua New Guinea,-4.311,146.256
Yomba,Papua New Guinea,-4.9,146.75
Long Island,Papua New Guinea,-5.358,147.12
Umboi,Papua New Guinea,-5.589,147.875
Ritter Island,Papua New Guinea,-5.52,148.121
Sakar,Papua New Guinea,-5.414,148.094
Unnamed,Papua New Guinea,-5.2,148.57
Langila,Papua New Guinea,-5.525,148.42
Mundua,Papua New Guinea,-4.63,149.35
Garove,Papua New Guinea,-4.692,149.5
Dakataua,Papua New Guinea,-5.056,150.108
Bola,Papua New Guinea,-5.15,150.03
Garua Harbour,Papua New Guinea,-5.3,150.07
Garbuna Group,Papua New Guinea,-5.45,150.03
Lolo,Papua New Guinea,-5.468,150.507
Pago,Papua New Guinea,-5.58,150.52
Sulu Range,Papua New Guinea,-5.5,150.942
Hargy,Papua New Guinea,-5.33,151.1
Bamus,Papua New Guinea,-5.2,151.23
Ulawun,Papua New Guinea,-5.05,151.33
Lolobau,Papua New Guinea,-4.92,151.158
Unnamed,Papua New Guinea,-4.75,150.85
Rabaul,Papua New Guinea,-4.271,152.203
Tavui,Papua New Guinea,-4.12,152.2
Doma Peaks,Papua New Guinea,-5.9,143.15
Crater Mountain,Papua New Guinea,-6.58,145.08
Yelia,Papua New Guinea,-7.05,145.858
Koranga,Papua New Guinea,-7.33,146.708
Madilogo,Papua New Guinea,-9.2,147.57
Lamington,Papua New Guinea,-8.95,148.15
Hydrographers Range,Papua New Guinea,-9,148.37
Musa River,Papua New Guinea,-9.308,148.13
Managlase Plateau,Papua New Guinea,-9.08,148.33
Victory,Papua New Guinea,-9.2,149.07
Sessagara,Papua New Guinea,-9.48,149.13
Waiowa,Papua New Guinea,-9.57,149.075
Goodenough,Papua New Guinea,-9.48,150.35
Iamalele,Papua New Guinea,-9.52,150.53
Dawson Strait Group,Papua New Guinea,-9.62,150.88
Lihir,Papua New Guinea,-3.125,152.642
Ambitle,Papua New Guinea,-4.08,153.65
Tore,Papua New Guinea,-5.83,154.93
Balbi,Papua New Guinea,-5.92,154.98
Billy Mitchell,Papua New Guinea,-6.092,155.225
Bagana,Papua New Guinea,-6.14,155.195
Takuan Group,Papua New Guinea,-6.442,155.608
Loloru,Papua New Guinea,-6.52,155.62
Simbo,Solomon Islands,-8.292,156.52
Kana Keoki,Solomon Islands,-8.75,157.03
Coleman Seamount,Solomon Islands,-8.83,157.17
Kavachi,Solomon Islands,-9.02,157.95
Unnamed,Solomon Islands,-8.92,158.03
Gallego,Solomon Islands,-9.35,159.73
Savo,Solomon Islands,-9.13,159.82
Tinakula,Solomon Islands,-10.38,165.8
Motlav,Vanuatu,-13.67,167.67
Suretamatai,Vanuatu,-13.8,167.47
Gaua,Vanuatu,-14.27,167.5
Mere Lava,Vanuatu,-14.45,168.05
Aoba,Vanuatu,-15.4,167.83
Ambrym,Vanuatu,-16.25,168.12
Lopevi,Vanuatu,-16.507,168.346
Epi,Vanuatu,-16.68,168.37
Kuwae,Vanuatu,-16.829,168.536
Unnamed,Vanuatu,-16.992,168.592
North Vate,Vanuatu,-17.47,168.353
Traitor's Head,Vanuatu,-18.75,169.23
Yasur,Vanuatu,-19.53,169.442
Aneityum,Vanuatu,-20.2,169.78
Eastern Gemini Seamount,France,-20.98,170.28
Matthew Island,France,-22.33,171.32
Hunter Island,France,-22.4,172.05
Unnamed,Undersea Features,-25.78,168.63
Newer Volcanics Province,Australia,-37.77,142.5
Narcondum,India,13.43,94.28
Barren Island,India,12.278,93.858
Seulawah Agam,Indonesia,5.448,95.658
Peuet Sague,Indonesia,4.914,96.329
"Telong, Bur ni",Indonesia,4.769,96.821
Sibayak,Indonesia,3.23,98.52
Sinabung,Indonesia,3.17,98.392
Toba,Indonesia,2.58,98.83
Imun,Indonesia,2.158,98.93
Sibualbuali,Indonesia,1.556,99.255
Lubukraya,Indonesia,1.478,99.209
Sorikmarapi,Indonesia,0.686,99.539
Malintang,Indonesia,0.47,99.67
Talakmau,Indonesia,0.079,99.98
Sarik-Gajah,Indonesia,0.08,100.2
Marapi,Indonesia,-0.381,100.473
Tandikat,Indonesia,-0.433,100.317
Talang,Indonesia,-0.978,100.679
Kerinci,Indonesia,-1.697,101.264
Kunyit,Indonesia,-2.274,101.483
Hutapanjang,Indonesia,-2.33,101.6
Sumbing,Indonesia,-2.414,101.728
Pendan,Indonesia,-2.82,102.02
Belirang-Beriti,Indonesia,-2.82,102.18
"Daun, Bukit",Indonesia,-3.38,102.37
Kaba,Indonesia,-3.52,102.62
Dempo,Indonesia,-4.03,103.13
Patah,Indonesia,-4.27,103.3
"Lumut Balai, Bukit",Indonesia,-4.22,103.62
Besar,Indonesia,-4.43,103.67
Ranau,Indonesia,-4.83,103.92
Sekincau Belirang,Indonesia,-5.12,104.32
Suoh,Indonesia,-5.25,104.27
Hulubelu,Indonesia,-5.35,104.6
Rajabasa,Indonesia,-5.78,105.625
Krakatau,Indonesia,-6.102,105.423
Pulosari,Indonesia,-6.342,105.975
Karang,Indonesia,-6.27,106.042
Perbakti-Gagak,Indonesia,-6.75,106.7
Salak,Indonesia,-6.72,106.73
Gede,Indonesia,-6.78,106.98
Patuha,Indonesia,-7.16,107.4
Wayang-Windu,Indonesia,-7.208,107.63
Malabar,Indonesia,-7.13,107.65
Tangkubanparahu,Indonesia,-6.77,107.6
Papandayan,Indonesia,-7.32,107.73
Kendang,Indonesia,-7.23,107.72
Guntur,Indonesia,-7.143,107.84
Tampomas,Indonesia,-6.77,107.95
Galunggung,Indonesia,-7.25,108.058
Talagabodas,Indonesia,-7.208,108.07
"Karaha, Kawah",Indonesia,-7.12,108.08
Cereme,Indonesia,-6.892,108.4
Slamet,Indonesia,-7.242,109.208
Dieng Volcanic Large cone(s),Indonesia,-7.2,109.92
Sundoro,Indonesia,-7.3,109.992
Sumbing,Indonesia,-7.384,110.07
Ungaran,Indonesia,-7.18,110.33
Telomoyo,Indonesia,-7.37,110.4
Merbabu,Indonesia,-7.45,110.43
Merapi,Indonesia,-7.542,110.442
Muria,Indonesia,-6.62,110.88
Lawu,Indonesia,-7.625,111.192
Wilis,Indonesia,-7.808,111.758
Kelut,Indonesia,-7.93,112.308
Kawi-Butak,Indonesia,-7.92,112.45
Arjuno-Welirang,Indonesia,-7.725,112.58
Penanggungan,Indonesia,-7.62,112.63
Malang Plain,Indonesia,-8.02,112.68
Semeru,Indonesia,-8.108,112.92
Tengger Caldera(s),Indonesia,-7.942,112.95
Lamongan,Indonesia,-7.979,113.342
Lurus,Indonesia,-7.73,113.58
Iyang-Argapura,Indonesia,-7.97,113.57
Raung,Indonesia,-8.125,114.042
Ijen,Indonesia,-8.058,114.242
Baluran,Indonesia,-7.85,114.37
Bratan,Indonesia,-8.28,115.13
Batur,Indonesia,-8.242,115.375
Agung,Indonesia,-8.342,115.508
Rinjani,Indonesia,-8.42,116.47
Tambora,Indonesia,-8.25,118
Sangeang Api,Indonesia,-8.2,119.07
"Sano, Wai",Indonesia,-8.72,120.02
Poco Leok,Indonesia,-8.68,120.48
Ranakah,Indonesia,-8.62,120.52
Inierie,Indonesia,-8.875,120.95
Inielika,Indonesia,-8.73,120.98
Ebulobo,Indonesia,-8.82,121.18
Iya,Indonesia,-8.897,121.645
Sukaria Caldera(s),Indonesia,-8.792,121.77
Ndete Napu,Indonesia,-8.72,121.78
Kelimutu,Indonesia,-8.77,121.82
Paluweh,Indonesia,-8.32,121.708
Egon,Indonesia,-8.67,122.45
Ilimuda,Indonesia,-8.478,122.671
Lewotobi,Indonesia,-8.542,122.775
Leroboleng,Indonesia,-8.358,122.842
Iliboleng,Indonesia,-8.342,123.258
Lewotolo,Indonesia,-8.272,123.505
Ililabalekan,Indonesia,-8.55,123.38
Iliwerung,Indonesia,-8.53,123.57
"Tara, Batu",Indonesia,-7.792,123.579
Sirung,Indonesia,-8.508,124.13
Yersey,Indonesia,-7.53,123.95
Emperor of China,Indonesia,-6.62,124.22
Nieuwerkerk,Indonesia,-6.6,124.675
Gunungapi Wetar,Indonesia,-6.642,126.65
Wurlali,Indonesia,-7.125,128.675
Teon,Indonesia,-6.92,129.125
Nila,Indonesia,-6.73,129.5
Serua,Indonesia,-6.3,130
Manuk,Indonesia,-5.53,130.292
Banda Api,Indonesia,-4.525,129.871
Colo [Una Una],Indonesia,-0.17,121.608
Ambang,Indonesia,0.75,124.42
Soputan,Indonesia,1.108,124.73
Sempu,Indonesia,1.13,124.758
Tondano Caldera(s),Indonesia,1.23,124.83
Lokon-Empung,Indonesia,1.358,124.792
Mahawu,Indonesia,1.358,124.858
Klabat,Indonesia,1.47,125.03
Tongkoko,Indonesia,1.52,125.2
Ruang,Indonesia,2.3,125.37
Karangetang [Api Siau],Indonesia,2.78,125.4
Banua Wuhu,Indonesia,3.138,125.491
Awu,Indonesia,3.67,125.5
Unnamed,Indonesia,3.97,124.17
Tarakan,Indonesia,1.83,127.83
Dukono,Indonesia,1.68,127.88
Tobaru,Indonesia,1.63,127.67
Ibu,Indonesia,1.488,127.63
Gamkonora,Indonesia,1.38,127.53
Todoko-Ranu,Indonesia,1.25,127.47
Jailolo,Indonesia,1.08,127.42
Hiri,Indonesia,0.9,127.32
Gamalama,Indonesia,0.8,127.33
Tidore,Indonesia,0.658,127.4
Mare,Indonesia,0.57,127.4
Moti,Indonesia,0.45,127.4
Makian,Indonesia,0.32,127.4
Tigalalu,Indonesia,0.07,127.42
Amasing,Indonesia,-0.53,127.48
Bibinoi,Indonesia,-0.77,127.72
Bombalai,Malaysia,4.4,117.88
Jolo,Philippines,6.013,121.057
Balut,Philippines,5.4,125.375
Parker,Philippines,6.113,124.892
Matutum,Philippines,6.37,125.07
Apo,Philippines,6.989,125.269
Leonard Range,Philippines,7.382,126.047
Makaturing,Philippines,7.647,124.32
Latukan,Philippines,7.65,124.45
Ragang,Philippines,7.7,124.5
Kalatungan,Philippines,7.95,124.8
Musuan,Philippines,7.877,125.068
Malindang,Philippines,8.22,123.63
Balatukan,Philippines,8.77,124.98
Camiguin,Philippines,9.203,124.673
Paco,Philippines,9.593,125.52
Cuernos de Negros,Philippines,9.25,123.17
Kanlaon,Philippines,10.412,123.132
Mandalagan,Philippines,10.65,123.25
Silay,Philippines,10.77,123.23
Cabal?an,Philippines,10.287,125.221
Mahagnao,Philippines,10.896,124.87
Biliran,Philippines,11.523,124.535
Bulusan,Philippines,12.77,124.05
Pocdol Mountains,Philippines,13.05,123.958
Mayon,Philippines,13.257,123.685
Masaraga,Philippines,13.32,123.6
Iriga,Philippines,13.457,123.457
Isarog,Philippines,13.658,123.38
Malindig,Philippines,13.24,122.018
Banahaw,Philippines,14.07,121.48
San Pablo Volcanic Field,Philippines,14.12,121.3
Taal,Philippines,14.002,120.993
Laguna Caldera(s),Philippines,14.42,121.27
Mariveles,Philippines,14.52,120.47
Natib,Philippines,14.72,120.4
Pinatubo,Philippines,15.13,120.35
Arayat,Philippines,15.2,120.742
Amorong,Philippines,15.828,120.805
Santo Tomas,Philippines,16.33,120.55
Patoc,Philippines,17.147,120.98
Ambalatungan Group,Philippines,17.32,121.1
Cagua,Philippines,18.222,122.123
Camiguin de Babuyanes,Philippines,18.83,121.86
Didicas,Philippines,19.077,122.202
Babuyan Claro,Philippines,19.523,121.94
Unnamed,Philippines,20.33,121.75
Iraya,Philippines,20.469,122.01
Hainan Dao,China,19.7,110.1
Leizhou Bandao,China,20.78,110.17
C?-Lao R? Group,Vietnam,15.38,109.12
Toroeng Prong,Vietnam,14.93,108
Haut Dong Nai,Vietnam,11.6,108.2
Bas Dong Nai,Vietnam,10.8,107.2
"Cendres, Ile des",Vietnam,10.158,109.014
Veteran,Vietnam,9.83,109.05
Popa,Burma (Myanmar),20.92,95.25
Lower Chindwin,Burma (Myanmar),22.28,95.1
Singu Plateau,Burma (Myanmar),22.7,95.98
Tengchong,China,25.23,98.5
Unnamed,Taiwan,20.93,134.75
Unnamed,Taiwan,19.17,132.25
Unnamed,Taiwan,21.83,121.18
Unnamed,Taiwan,24,121.83
Kueishantao,Taiwan,24.85,121.92
Tatun Group,Taiwan,25.17,121.52
Unnamed,Taiwan,25.4,122.2
Zengyu,Taiwan,26.18,122.458
Submarine Volcano NNE of Iriomotejima,Japan,24.57,123.93
Io-Torishima,Japan,27.881,128.223
Yokoate-jima,Japan,28.797,128.997
Akuseki-jima,Japan,29.461,129.597
Suwanosejima,Japan,29.638,129.714
Nakanoshima,Japan,29.856,129.859
Kogaja-jima,Japan,29.879,129.625
Kuchinoshima,Japan,29.964,129.927
Kuchinoerabujima,Japan,30.443,130.217
Kikai,Japan,30.789,130.308
Ibusuki Volcanic Field,Japan,31.22,130.57
Sakurajima,Japan,31.593,130.657
Sumiyoshi-ike,Japan,31.768,130.594
Kirishimayama,Japan,31.934,130.862
Fukue Volcanoes,Japan,32.657,128.849
Unzendake,Japan,32.761,130.299
Asosan,Japan,32.884,131.104
Kujusan,Japan,33.086,131.249
Tsurumi,Japan,33.28,131.432
Abu,Japan,34.5,131.6
Sanbe,Japan,35.141,131.402
Oki-Dogo,Japan,36.176,133.334
Izu-Tobu Volcanoes,Japan,34.9,139.098
Hakone,Japan,35.23,139.024
Fuji,Japan,35.358,138.731
Kita Yatsuga-take,Japan,36.1,138.3
On-take,Japan,35.89,137.48
Haku-san,Japan,36.152,136.774
Norikura,Japan,36.103,137.557
Yake-dake,Japan,36.224,137.59
Washiba-Kumonotaira,Japan,36.408,137.594
Tate-yama,Japan,36.568,137.593
Niigata-Yake-yama,Japan,36.918,138.039
Myoko,Japan,36.888,138.12
Asama,Japan,36.403,138.526
Kusatsu-Shirane,Japan,36.62,138.535
Shiga,Japan,36.688,138.519
Haruna,Japan,36.474,138.881
Akagi,Japan,36.557,139.196
Hiuchi,Japan,36.952,139.289
Nikko-Shirane,Japan,36.796,139.379
Nantai,Japan,36.762,139.494
Omanago Group,Japan,36.792,139.51
Takahara,Japan,36.897,139.78
Nasu,Japan,37.122,139.966
Numazawa,Japan,37.45,139.579
Bandai,Japan,37.598,140.076
Adatara,Japan,37.644,140.286
Azuma,Japan,37.732,140.248
Zao,Japan,38.141,140.443
Hijiori,Japan,38.606,140.178
Narugo,Japan,38.733,140.732
Kurikoma,Japan,38.958,140.792
Chokai,Japan,39.096,140.052
Akita-Komaga-take,Japan,39.758,140.803
Iwate,Japan,39.85,141.004
Hachimantai,Japan,39.955,140.857
Akita-Yake-yama,Japan,39.961,140.761
Megata,Japan,39.95,139.73
Iwaki,Japan,40.653,140.307
Towada,Japan,40.47,140.92
Hakkoda Group,Japan,40.656,140.881
Osore-yama,Japan,41.276,141.124
Oshima,Japan,34.721,139.398
To-shima,Japan,34.517,139.283
Nii-jima,Japan,34.393,139.273
Kozu-shima,Japan,34.216,139.156
Miyake-jima,Japan,34.079,139.529
Mikura-jima,Japan,33.871,139.605
Kurose Hole,Japan,33.4,139.68
Hachijo-jima,Japan,33.13,139.769
Aoga-shima,Japan,32.454,139.762
Myojin Knoll,Japan,32.1,139.85
Bayonnaise Rocks,Japan,31.88,139.92
Smith Rock,Japan,31.436,140.054
Tori-shima,Japan,30.48,140.306
Sofugan,Japan,29.789,140.345
Suiyo Seamount,Japan,28.6,140.63
Mokuyo Seamount,Japan,28.32,140.57
Doyo Seamount,Japan,27.68,140.8
Nishino-shima,Japan,27.274,140.882
Kaikata Seamount,Japan,26.67,141
Kaitoku Seamount,Japan,26.122,141.102
Unnamed,Japan,26.13,144.48
Kita-Iwo-jima,Japan,25.424,141.284
Ioto [Iwo-jima],Japan,24.754,141.29
Kita-Fukutokutai,Japan,24.414,141.419
Fukutoku-Okanoba,Japan,24.28,141.485
Minami-Hiyoshi,Japan,23.497,141.94
Nikko,Japan,23.075,142.308
Fukujin,Japan,21.93,143.47
Kasuga,Japan,21.765,143.71
Minami Kasuga,Japan,21.6,143.637
NW Eifuku,Japan,21.485,144.043
Daikoku,Japan,21.324,144.194
Unnamed,United States,21,142.9
Unnamed,United States,20.3,143.2
Farallon de Pajaros,United States,20.538,144.896
Ahyi,United States,20.42,145.03
Supply Reef,United States,20.13,145.1
Maug Islands,United States,20.02,145.22
Asuncion,United States,19.671,145.406
Agrigan,United States,18.77,145.67
Pagan,United States,18.13,145.8
Alamagan,United States,17.6,145.83
Guguan,United States,17.307,145.845
Zealandia Bank,United States,16.88,145.85
Sarigan,United States,16.708,145.78
South Sarigan Seamount,United States,16.58,145.78
Anatahan,United States,16.35,145.67
East Diamante,United States,15.93,145.67
Ruby,United States,15.62,145.57
Esmeralda Bank,United States,15,145.25
NW Rota-1,United States,14.601,144.775
Forecast Seamount,United States,13.4,143.92
Seamount X,United States,13.25,144.02
Oshima-Oshima,Japan,41.507,139.371
E-san,Japan,41.802,141.17
Komaga-take,Japan,42.061,140.681
Usu,Japan,42.541,140.843
Niseko,Japan,42.88,140.63
Yotei,Japan,42.83,140.815
Kuttara,Japan,42.489,141.163
Shikotsu,Japan,42.688,141.38
Rishiri,Japan,45.18,141.25
Tokachi,Japan,43.416,142.69
Daisetsu,Japan,43.661,142.858
Nipesotsu-Maruyama,Japan,43.453,143.036
Shikaribetsu Group,Japan,43.312,143.096
Akan,Japan,43.384,144.013
Kutcharo,Japan,43.608,144.443
Mashu,Japan,43.572,144.561
Rausudake,Japan,44.076,145.122
Tenchozan,Japan,44.044,145.086
Shiretoko-Iozan,Japan,44.133,145.161
Tomariyama [Golovnin],Japan - administered by Russia,43.844,145.504
Raususan [Mendeleev],Japan - administered by Russia,43.979,145.733
Ruruidake [Smirnov],Japan - administered by Russia,44.454,146.139
Chachadake [Tiatia],Japan - administered by Russia,44.353,146.252
Berutarubesan [Berutarube],Japan - administered by Russia,44.462,146.932
Moekeshiwan [Lvinaya Past],Japan - administered by Russia,44.608,146.994
Etorofu-Atsonupuri [Atsonupuri],Japan - administered by Russia,44.808,147.131
Nishihitokappuyama [Bogatyr Ridge],Japan - administered by Russia,44.833,147.342
Unnamed,Japan - administered by Russia,45.03,147.208
Etorofu-Yakeyama [Grozny Group],Japan - administered by Russia,45.012,147.871
Odamoisan [Tebenkov],Japan - administered by Russia,45.026,147.922
Sashiusudake [Baransky],Japan - administered by Russia,45.1,148.019
Chirippusan [Chirip],Japan - administered by Russia,45.338,147.92
Rucharuyama [Golets-Tornyi Group],Japan - administered by Russia,45.25,148.35
Moyorodake [Medvezhia],Japan - administered by Russia,45.389,148.838
Rakkibetsudake [Demon],Japan - administered by Russia,45.5,148.85
Ivao Group,Russia,45.77,149.68
Rudakov,Russia,45.88,149.83
Tri Sestry,Russia,45.93,149.92
Kolokol Group,Russia,46.042,150.05
Unnamed,Russia,46.1,150.5
Chirpoi,Russia,46.525,150.875
Unnamed,Russia,46.47,151.28
Milne,Russia,46.82,151.78
Goriaschaia Sopka,Russia,46.83,151.75
Zavaritzki Caldera(s),Russia,46.925,151.95
Prevo Peak,Russia,47.02,152.12
Urataman,Russia,47.12,152.25
Ketoi,Russia,47.35,152.475
Ushishur,Russia,47.52,152.8
Srednii,Russia,47.6,152.92
Rasshua,Russia,47.77,153.02
Unnamed,Russia,48.08,153.33
Sarychev Peak,Russia,48.092,153.2
Raikoke,Russia,48.292,153.25
Chirinkotan,Russia,48.98,153.48
Ekarma,Russia,48.958,153.93
Sinarka,Russia,48.875,154.175
Kharimkotan,Russia,49.12,154.508
Tao-Rusyr Caldera(s),Russia,49.35,154.7
Nemo Peak,Russia,49.57,154.808
Shirinki,Russia,50.2,154.98
Fuss Peak,Russia,50.27,155.25
Karpinsky Group,Russia,50.13,155.37
Chikurachki,Russia,50.325,155.458
Vernadskii Ridge,Russia,50.55,155.97
Ebeko,Russia,50.68,156.02
Alaid,Russia,50.858,155.55
Mashkovtsev,Russia,51.1,156.72
Kambalny,Russia,51.3,156.87
Koshelev,Russia,51.357,156.75
Yavinsky,Russia,51.57,156.6
Diky Greben,Russia,51.45,156.97
Kurile Lake,Russia,51.45,157.12
Ilyinsky,Russia,51.49,157.2
Zheltovsky,Russia,51.57,157.323
Kell,Russia,51.65,157.35
Belenkaya,Russia,51.75,157.27
Ksudach,Russia,51.8,157.53
Ozernoy,Russia,51.88,157.38
Olkoviy Volcanic Group,Russia,52.02,157.53
Khodutka,Russia,52.063,157.703
Piratkovsky,Russia,52.113,157.849
Ostanets,Russia,52.146,157.322
Otdelniy,Russia,52.22,157.428
Golaya,Russia,52.263,157.787
Asacha,Russia,52.355,157.827
Visokiy,Russia,52.43,157.93
Mutnovsky,Russia,52.453,158.195
Gorely,Russia,52.558,158.03
Opala,Russia,52.543,157.335
Unnamed,Russia,52.57,157.02
Tolmachev Dol,Russia,52.63,157.58
Vilyuchik,Russia,52.7,158.28
Barkhatnaya Sopka,Russia,52.823,158.27
Unnamed,Russia,52.92,158.52
Unnamed,Russia,52.88,158.3
Bolshe-Bannaya,Russia,52.9,157.78
Koryaksky,Russia,53.32,158.688
Avachinsky,Russia,53.255,158.83
Dzenzursky,Russia,53.637,158.922
Zhupanovsky,Russia,53.59,159.147
Veer,Russia,53.75,158.45
Kostakan,Russia,53.83,158.05
Bakening,Russia,53.905,158.07
Zavaritsky,Russia,53.905,158.385
Akademia Nauk,Russia,53.98,159.45
Karymsky,Russia,54.05,159.45
Maly Semiachik,Russia,54.13,159.67
Bolshoi Semiachik,Russia,54.32,160.02
Taunshits,Russia,54.53,159.8
Uzon,Russia,54.5,159.97
Kikhpinych,Russia,54.487,160.253
Krasheninnikov,Russia,54.593,160.273
Kronotsky,Russia,54.753,160.527
Schmidt,Russia,54.92,160.63
Gamchen,Russia,54.973,160.702
Komarov,Russia,55.032,160.72
Vysoky,Russia,55.07,160.77
Kizimen,Russia,55.13,160.32
Unnamed,Russia,55.92,161.75
Tolbachik,Russia,55.83,160.33
Udina,Russia,55.755,160.527
Zimina,Russia,55.862,160.603
Bezymianny,Russia,55.978,160.587
Kamen,Russia,56.02,160.593
Kliuchevskoi,Russia,56.057,160.638
Ushkovsky,Russia,56.07,160.47
Shiveluch,Russia,56.653,161.36
Piip,Russia,55.42,167.33
Khangar,Russia,54.75,157.38
Cherpuk Group,Russia,55.55,157.47
Ichinsky,Russia,55.68,157.73
Maly Payalpan,Russia,55.82,157.98
Bolshoi Payalpan,Russia,55.88,157.78
Plosky,Russia,55.2,158.47
Akhtang,Russia,55.43,158.65
Kozyrevsky,Russia,55.58,158.38
Romanovka,Russia,55.65,158.8
Uksichan,Russia,56.08,158.38
Bolshoi-Kekuknaysky,Russia,56.47,157.8
Kulkev,Russia,56.37,158.37
Geodesistoy,Russia,56.33,158.67
Anaun,Russia,56.32,158.83
Krainy,Russia,56.37,159.03
Kekurny,Russia,56.4,158.85
Eggella,Russia,56.57,158.52
Unnamed,Russia,56.82,158.95
Verkhovoy,Russia,56.52,159.53
Alney-Chashakondzha,Russia,56.7,159.65
Cherny,Russia,56.82,159.67
Pogranychny,Russia,56.85,159.8
Zaozerny,Russia,56.88,159.95
Bliznets,Russia,56.97,159.78
Kebeney,Russia,57.1,159.93
Fedotych,Russia,57.13,160.4
Shisheika,Russia,57.15,161.08
Terpuk,Russia,57.2,159.83
Sedankinsky,Russia,57.27,160.08
Leutongey,Russia,57.3,159.83
Tuzovsky,Russia,57.32,159.97
Gorny Institute,Russia,57.33,160.2
Kinenin,Russia,57.35,160.97
Bliznetsy,Russia,57.35,161.37
Titila,Russia,57.4,160.1
Mezhdusopochny,Russia,57.47,160.25
Shishel,Russia,57.45,160.37
Elovsky,Russia,57.55,160.53
Alngey,Russia,57.7,160.4
Uka,Russia,57.7,160.58
Kaileney,Russia,57.8,160.67
Plosky,Russia,57.83,160.25
Bely,Russia,57.88,160.53
Nylgimelkin,Russia,57.97,160.65
Snezhniy,Russia,58.02,160.8
Iktunup,Russia,58.08,160.77
Spokoiny,Russia,58.13,160.82
Ostry,Russia,58.18,160.82
Snegovoy,Russia,58.2,160.97
Severny,Russia,58.28,160.87
Iettunup,Russia,58.4,161.08
Voyampolsky,Russia,58.37,160.62
Sikhote-Alin,Russia,47,137.5
Udokan Plateau,Russia,56.28,117.77
Vitim Plateau,Russia,53.7,113.3
Tunkin Depression,Russia,51.5,102.5
Oka Plateau,Russia,52.7,98.98
Azas Plateau,Russia,52.52,98.6
Taryatu-Chulutu,Mongolia,48.17,99.7
Khanuy Gol,Mongolia,48.67,102.75
Bus-Obo,Mongolia,47.12,109.08
Dariganga Volcanic Field,Mongolia,45.33,114
Middle Gobi,Mongolia,45.28,106.7
Turfan,China,42.9,89.25
Tianshan Volcanic Group,China,42.5,82.5
Kunlun Volcanic Group,China,35.52,80.2
Unnamed,China,35.85,91.7
Honggeertu,China,41.47,113
Arshan,China,47.5,120.7
Keluo Group,China,49.37,125.92
Wudalianchi,China,48.72,126.12
Jingbo,China,44.08,128.83
Longgang Group,China,42.33,126.5
Changbaishan,China-North Korea,41.98,128.08
Xianjindao,North Korea,41.33,128
Ch'uga-ryong,North Korea-South Korea,38.33,127.33
Ulreung,South Korea,37.5,130.87
Halla,South Korea,33.37,126.53
Buldir,United States,52.35,175.911
Kiska,United States,52.103,177.602
Segula,United States,52.015,178.136
Davidof,United States,51.97,178.33
Little Sitkin,United States,51.95,178.543
Semisopochnoi,United States,51.93,179.58
Gareloi,United States,51.79,-178.794
Tanaga,United States,51.885,-178.146
Takawangha,United States,51.873,-178.006
Bobrof,United States,51.91,-177.438
Kanaga,United States,51.923,-177.168
Moffett,United States,51.944,-176.747
Great Sitkin,United States,52.076,-176.13
Kasatochi,United States,52.177,-175.508
Koniuji,United States,52.22,-175.13
Sergief,United States,52.05,-174.95
Atka,United States,52.332,-174.137
Korovin,United States,52.381,-174.154
Seguam,United States,52.315,-172.51
Amukta,United States,52.5,-171.252
Chagulak,United States,52.577,-171.13
Yunaska,United States,52.643,-170.629
Herbert,United States,52.742,-170.111
Carlisle,United States,52.894,-170.054
Cleveland,United States,52.825,-169.944
Tana,United States,52.83,-169.77
Uliaga,United States,53.065,-169.77
Kagamil,United States,52.974,-169.72
Vsevidof,United States,53.13,-168.693
Recheschnoi,United States,53.157,-168.539
Okmok,United States,53.43,-168.13
Bogoslof,United States,53.93,-168.03
Makushin,United States,53.891,-166.923
Akutan,United States,54.134,-165.986
Westdahl,United States,54.518,-164.65
Fisher,United States,54.65,-164.43
Shishaldin,United States,54.756,-163.97
Isanotski,United States,54.765,-163.723
Roundtop,United States,54.8,-163.589
Amak,United States,55.424,-163.149
Frosty,United States,55.082,-162.814
Dutton,United States,55.168,-162.272
Emmons Lake,United States,55.341,-162.079
Pavlof,United States,55.42,-161.887
Pavlof Sister,United States,55.453,-161.843
Dana,United States,55.641,-161.214
Stepovak Bay 2,United States,55.913,-160.041
Stepovak Bay 3,United States,55.929,-160.002
Stepovak Bay 4,United States,55.954,-159.954
Kupreanof,United States,56.011,-159.797
Veniaminof,United States,56.17,-159.38
Black Peak,United States,56.552,-158.785
Aniakchak,United States,56.88,-158.17
Yantarni,United States,57.019,-157.185
Chiginagak,United States,57.135,-156.99
Kialagvik,United States,57.203,-156.745
Ugashik-Peulik,United States,57.751,-156.368
Ukinrek Maars,United States,57.832,-156.51
Unnamed,United States,57.87,-155.42
Martin,United States,58.172,-155.361
Mageik,United States,58.195,-155.253
Trident,United States,58.236,-155.1
Katmai,United States,58.28,-154.963
Novarupta,United States,58.27,-155.157
Griggs,United States,58.354,-155.092
Snowy Mountain,United States,58.336,-154.682
Denison,United States,58.418,-154.449
Steller,United States,58.43,-154.4
Kukak,United States,58.453,-154.355
Kaguyak,United States,58.608,-154.028
Fourpeaked,United States,58.77,-153.672
Douglas,United States,58.855,-153.542
Augustine,United States,59.363,-153.43
Iliamna,United States,60.032,-153.09
Redoubt,United States,60.485,-152.742
Spurr,United States,61.299,-152.251
Hayes,United States,61.64,-152.411
St. Paul Island,United States,57.18,-170.3
Nunivak Island,United States,60.02,-166.33
Ingakslugwat Hills,United States,61.43,-164.47
St. Michael,United States,63.45,-162.12
Kookooligit Mountains,United States,63.6,-170.43
Imuruk Lake,United States,65.6,-163.92
Buzzard Creek,United States,64.07,-148.42
Sanford,United States,62.22,-144.13
Wrangell,United States,62,-144.02
Gordon,United States,62.13,-143.08
Churchill,United States,61.38,-141.75
Edgecumbe,United States,57.05,-135.75
Duncan Canal,United States,56.5,-133.1
Tlevak Strait-Suemez Is.,United States,55.25,-133.3
Behm Canal-Rudyerd Bay,United States,55.32,-131.05
Fort Selkirk,Canada,62.93,-137.38
Alligator Lake,Canada,60.42,-135.42
Atlin Volcanic Field,Canada,59.68,-133.32
Tuya Volcanic Field,Canada,59.37,-130.58
Heart Peaks,Canada,58.6,-131.97
Level Mountain,Canada,58.42,-131.35
Edziza,Canada,57.72,-130.63
Spectrum Range,Canada,57.43,-130.68
Hoodoo Mountain,Canada,56.78,-131.28
Iskut-Unuk River Cones,Canada,56.58,-130.55
Tseax River Cone,Canada,55.12,-128.9
Crow Lagoon,Canada,54.7,-130.23
Milbanke Sound Group,Canada,52.5,-128.73
Satah Mountain,Canada,52.47,-124.7
Nazko,Canada,52.9,-123.73
Wells Gray-Clearwater,Canada,52.33,-120.57
Silverthrone,Canada,51.43,-126.3
Bridge River Cones,Canada,50.8,-123.4
Meager,Canada,50.63,-123.5
Garibaldi Lake,Canada,49.92,-123.03
Garibaldi,Canada,49.85,-123
Cayley Volcanic Field,Canada,50.12,-123.28
Baker,United States,48.777,-121.813
Glacier Peak,United States,48.112,-121.113
Rainier,United States,46.853,-121.76
Adams,United States,46.206,-121.49
St. Helens,United States,46.2,-122.18
West Crater,United States,45.88,-122.08
Indian Heaven,United States,45.93,-121.82
Hood,United States,45.374,-121.695
Jefferson,United States,44.674,-121.8
Blue Lake Crater,United States,44.411,-121.774
Sand Mountain Field,United States,44.38,-121.93
Belknap,United States,44.285,-121.841
North Sister Field,United States,44.17,-121.77
Bachelor,United States,43.979,-121.688
Davis Lake,United States,43.57,-121.82
Newberry,United States,43.722,-121.229
Devils Garden,United States,43.512,-120.861
Cinnamon Butte,United States,43.241,-122.108
Crater Lake,United States,42.93,-122.12
Diamond Craters,United States,43.1,-118.75
Jordan Craters,United States,43.147,-117.46
Shasta,United States,41.409,-122.193
Medicine Lake,United States,41.611,-121.554
Silver Lake,United States,40.731,-121.841
Lassen Volcanic Center,United States,40.492,-121.508
Clear Lake,United States,38.97,-122.77
Mono Lake Volcanic Field,United States,38,-119.03
Mono Craters,United States,37.88,-119
Inyo Craters,United States,37.692,-119.02
Mammoth Mountain,United States,37.631,-119.032
Ubehebe Craters,United States,37.02,-117.45
Golden Trout Creek,United States,36.358,-118.32
Coso Volcanic Field,United States,36.03,-117.82
Lavic Lake,United States,34.75,-116.625
Salton Buttes,United States,33.2,-115.62
Shoshone Lava Field,United States,43.18,-114.35
Craters of the Moon,United States,43.42,-113.5
Wapi Lava Field,United States,42.88,-113.22
Hell's Half Acre,United States,43.5,-112.45
Yellowstone,United States,44.43,-110.67
Soda Lakes,United States,39.53,-118.87
Markagunt Plateau,United States,37.58,-112.67
Black Rock Desert,United States,38.97,-112.5
Carrizozo,United States,33.78,-105.93
Zuni-Bandera,United States,34.8,-108
Dotsero,United States,39.661,-107.035
Uinkaret Field,United States,36.38,-113.13
Sunset Crater,United States,35.37,-111.5
Endeavour Ridge,Undersea Features,47.95,-129.1
Cobb Segment,Undersea Features,46.88,-129.33
CoAxial Segment,Undersea Features,46.52,-129.58
Axial Seamount,Undersea Features,45.95,-130
Cleft Segment,Undersea Features,44.83,-130.3
North Gorda Ridge,United States,42.67,-126.78
Escanaba Segment,United States,40.98,-127.5
Unnamed,United States,31.75,-124.25
Loihi,United States,18.92,-155.27
Kilauea,United States,19.421,-155.287
Mauna Loa,United States,19.475,-155.608
Mauna Kea,United States,19.82,-155.47
Hualalai,United States,19.692,-155.87
Haleakala,United States,20.708,-156.25
Unnamed,United States,21.75,-158.75
Unnamed,United States,23.58,-163.83
Teahitia,France,-17.57,-148.85
Rocard,France,-17.642,-148.6
Moua Pihaa,France,-18.32,-148.67
Mehetia,France,-17.87,-148.07
Adams Seamount,Undersea Features,-25.37,-129.27
Macdonald,Undersea Features,-28.98,-140.25
Northern EPR-Segment RO2,Undersea Features,16.55,-105.32
Northern EPR-Segment RO3,Undersea Features,15.83,-105.43
Unnamed,Undersea Features,10.73,-103.58
Unnamed,Undersea Features,9.83,-104.3
Gal?pagos Rift,Undersea Features,0.792,-86.15
Unnamed,Undersea Features,-8.27,-107.95
Southern EPR-Segment K,Undersea Features,-17.436,-113.206
Southern EPR-Segment J,Undersea Features,-18.175,-113.35
Southern EPR-Segment I,Undersea Features,-18.53,-113.42
Antipodes Island,New Zealand,-49.68,178.77
Unnamed,Undersea Features,-53.9,-140.3
Unnamed,Undersea Features,-55.97,-143.17
"Prieto, Cerro",Mexico,32.418,-115.305
Pinacate,Mexico,31.772,-113.498
San Quint?n Volcanic Field,Mexico,30.468,-115.996
"San Luis, Isla",Mexico,29.97,-114.4
Jaraguay Volcanic Field,Mexico,29.33,-114.5
Coronado,Mexico,29.08,-113.513
Guadalupe,Mexico,29.07,-118.28
San Borja Volcanic Field,Mexico,28.5,-113.75
Unnamed,Mexico,28,-115
Tres V?rgenes,Mexico,27.47,-112.591
"Tortuga, Isla",Mexico,27.43,-111.88
Comond?-La Pur?sima,Mexico,26,-111.92
B?rcena,Mexico,19.3,-110.82
Socorro,Mexico,18.78,-110.95
Durango Volcanic Field,Mexico,24.15,-104.45
"Isabel, Isla",Mexico,21.848,-105.886
Sangang?ey,Mexico,21.45,-104.73
Ceboruco,Mexico,21.125,-104.508
Mascota Volcanic Field,Mexico,20.62,-104.83
Colima,Mexico,19.514,-103.62
Michoac?n-Guanajuato,Mexico,19.85,-101.75
Zit?cuaro-Valle de Bravo,Mexico,19.4,-100.25
Jocotitl?n,Mexico,19.73,-99.758
"Toluca, Nevado de",Mexico,19.108,-99.758
Chichinautzin,Mexico,19.08,-99.13
Papayo,Mexico,19.308,-98.7
Iztacc?huatl,Mexico,19.179,-98.642
Popocat?petl,Mexico,19.023,-98.622
"Malinche, La",Mexico,19.231,-98.032
Serd?n-Oriental,Mexico,19.27,-97.47
"Humeros, Los",Mexico,19.68,-97.45
"Atlixcos, Los",Mexico,19.809,-96.526
Naolinco Volcanic Field,Mexico,19.67,-96.75
Cofre de Perote,Mexico,19.492,-97.15
"Gloria, La",Mexico,19.33,-97.25
"Cumbres,  Las",Mexico,19.15,-97.27
"Orizaba, Pico de",Mexico,19.03,-97.268
San Mart?n,Mexico,18.57,-95.2
"Chich?n, El",Mexico,17.36,-93.228
Tacan?,Mexico-Guatemala,15.13,-92.112
Tajumulco,Guatemala,15.034,-91.903
Santa Mar?a,Guatemala,14.756,-91.552
Almolonga,Guatemala,14.82,-91.48
Atitl?n,Guatemala,14.583,-91.186
Tolim?n,Guatemala,14.612,-91.189
Acatenango,Guatemala,14.501,-90.876
Fuego,Guatemala,14.473,-90.88
Agua,Guatemala,14.465,-90.743
Pacaya,Guatemala,14.381,-90.601
Cuilapa-Barbarena,Guatemala,14.33,-90.4
Tecuamburro,Guatemala,14.156,-90.407
Jumaytepeque,Guatemala,14.336,-90.269
Moyuta,Guatemala,14.03,-90.1
Flores,Guatemala,14.308,-89.992
Tahual,Guatemala,14.43,-89.9
"Santiago, Cerro",Guatemala,14.33,-89.87
Suchit?n,Guatemala,14.4,-89.78
Chingo,Guatemala-El Salvador,14.12,-89.73
Ixtepeque,Guatemala,14.42,-89.68
Ipala,Guatemala,14.55,-89.63
Chiquimula Volcanic Field,Guatemala,14.83,-89.55
Quezaltepeque,Guatemala,14.57,-89.45
San Diego,El Salvador-Guatemala,14.27,-89.48
"Sing?il, Cerro",El Salvador,14.05,-89.65
Apaneca Range,El Salvador,13.891,-89.786
Santa Ana,El Salvador,13.853,-89.63
Izalco,El Salvador,13.813,-89.633
Coatepeque Caldera(s),El Salvador,13.87,-89.55
San Salvador,El Salvador,13.734,-89.294
"Cinotepeque, Cerro",El Salvador,14.02,-89.25
Guazapa,El Salvador,13.9,-89.12
Ilopango,El Salvador,13.672,-89.053
San Vicente,El Salvador,13.595,-88.837
Apastepeque Field,El Salvador,13.72,-88.77
Taburete,El Salvador,13.435,-88.532
Tecapa,El Salvador,13.494,-88.502
Usulut?n,El Salvador,13.419,-88.471
"Tigre, El",El Salvador,13.47,-88.43
Chinameca,El Salvador,13.478,-88.33
San Miguel,El Salvador,13.434,-88.269
"Aramuaca, Laguna",El Salvador,13.428,-88.105
Conchagua,El Salvador,13.275,-87.845
Conchag?ita,El Salvador,13.229,-87.767
"Tigre, Isla el",Honduras,13.272,-87.641
"Zacate Grande, Isla",Honduras,13.33,-87.63
"Yojoa, Lake",Honduras,14.98,-87.98
Utila Island,Honduras,16.1,-86.9
Cosig?ina,Nicaragua,12.98,-87.57
San Crist?bal,Nicaragua,12.702,-87.004
Telica,Nicaragua,12.602,-86.845
Rota,Nicaragua,12.55,-86.75
"Negro, Cerro",Nicaragua,12.506,-86.702
"Pilas, Las",Nicaragua,12.495,-86.688
Momotombo,Nicaragua,12.422,-86.54
Apoyeque,Nicaragua,12.242,-86.342
Nejapa-Miraflores,Nicaragua,12.12,-86.32
Masaya,Nicaragua,11.984,-86.161
Granada,Nicaragua,11.92,-85.98
Mombacho,Nicaragua,11.826,-85.968
Zapatera,Nicaragua,11.73,-85.82
Concepci?n,Nicaragua,11.538,-85.622
Maderas,Nicaragua,11.446,-85.515
Estel?,Nicaragua,13.17,-86.4
"Ciguatepe, Cerro el",Nicaragua,12.53,-86.142
"Lajas, Las",Nicaragua,12.3,-85.73
"Azul, Volc?n",Nicaragua,12.53,-83.87
Oros?,Costa Rica,10.98,-85.473
Rinc?n de la Vieja,Costa Rica,10.83,-85.324
Miravalles,Costa Rica,10.748,-85.153
Tenorio,Costa Rica,10.673,-85.015
Arenal,Costa Rica,10.463,-84.703
Platanar,Costa Rica,10.3,-84.366
Po?s,Costa Rica,10.2,-84.233
Barva,Costa Rica,10.135,-84.1
Iraz?,Costa Rica,9.979,-83.852
Turrialba,Costa Rica,10.025,-83.767
Bar?,Panama,8.808,-82.543
"Valle, El",Panama,8.58,-80.17
Romeral,Colombia,5.206,-75.364
"Bravo, Cerro",Colombia,5.092,-75.3
"Ruiz, Nevado del",Colombia,4.895,-75.322
Santa Isabel,Colombia,4.82,-75.37
"Tolima, Nevado del",Colombia,4.67,-75.33
Mach?n,Colombia,4.48,-75.392
"Huila, Nevado del",Colombia,2.93,-76.03
Purac?,Colombia,2.32,-76.4
Sotar?,Colombia,2.108,-76.592
Petacas,Colombia,1.57,-76.78
Do?a Juana,Colombia,1.47,-76.92
Galeras,Colombia,1.22,-77.37
Azufral,Colombia,1.08,-77.68
Cumbal,Colombia,0.95,-77.87
"Negro de Mayasquer, Cerro",Colombia-Ecuador,0.828,-77.964
Soche,Ecuador,0.552,-77.58
Chachimbiro,Ecuador,0.468,-78.287
Cuicocha,Ecuador,0.308,-78.364
Imbabura,Ecuador,0.258,-78.183
Mojanda,Ecuador,0.13,-78.27
Cayambe,Ecuador,0.029,-77.986
Reventador,Ecuador,-0.077,-77.656
Pululagua,Ecuador,0.038,-78.463
Guagua Pichincha,Ecuador,-0.171,-78.598
Atacazo,Ecuador,-0.353,-78.617
Chacana,Ecuador,-0.375,-78.25
Antisana,Ecuador,-0.481,-78.141
Aliso,Ecuador,-0.53,-78
Sumaco,Ecuador,-0.538,-77.626
Illiniza,Ecuador,-0.659,-78.714
Cotopaxi,Ecuador,-0.677,-78.436
Quilotoa,Ecuador,-0.85,-78.9
Chimborazo,Ecuador,-1.464,-78.815
Tungurahua,Ecuador,-1.467,-78.442
Licto,Ecuador,-1.78,-78.613
Sangay,Ecuador,-2.002,-78.341
Fernandina,Ecuador,-0.37,-91.55
Ecuador,Ecuador,-0.02,-91.546
Wolf,Ecuador,0.02,-91.35
Darwin,Ecuador,-0.18,-91.28
Alcedo,Ecuador,-0.43,-91.12
"Negra, Sierra",Ecuador,-0.83,-91.17
"Azul, Cerro",Ecuador,-0.92,-91.408
Pinta,Ecuador,0.58,-90.75
Marchena,Ecuador,0.33,-90.47
Genovesa,Ecuador,0.32,-89.958
Santiago,Ecuador,-0.22,-90.77
Santa Cruz,Ecuador,-0.62,-90.33
San Crist?bal,Ecuador,-0.88,-89.5
Quimsachata,Peru,-14.2,-71.33
"Auquihuato, Cerro",Peru,-15.07,-73.18
Sara Sara,Peru,-15.33,-73.45
Coropuna,Peru,-15.52,-72.65
Andahua-Orcopampa,Peru,-15.42,-72.33
Huambo,Peru,-15.83,-72.13
Sabancaya,Peru,-15.78,-71.85
"Chachani, Nevado",Peru,-16.191,-71.53
"Nicholson, Cerro",Peru,-16.258,-71.753
"Misti, El",Peru,-16.294,-71.409
Ubinas,Peru,-16.355,-70.903
Huaynaputina,Peru,-16.608,-70.85
Ticsani,Peru,-16.755,-70.595
Tutupaca,Peru,-17.025,-70.358
Yucamane,Peru,-17.18,-70.2
"Casiri, Nevados",Peru,-17.47,-69.813
Tacora,Chile-Peru,-17.72,-69.77
Taapaca,Chile,-18.1,-69.5
Parinacota,Chile-Bolivia,-18.17,-69.15
Guallatiri,Chile,-18.42,-69.092
Tambo Quemado,Bolivia,-18.62,-68.75
Isluga,Chile,-19.15,-68.83
Tata Sabaya,Bolivia,-19.13,-68.53
"Jayu Khota, Laguna",Bolivia,-19.45,-67.42
Nuevo Mundo,Bolivia,-19.78,-66.48
Irruputuncu,Chile-Bolivia,-20.73,-68.55
Pampa Luxsar,Bolivia,-20.85,-68.2
Olca-Paruma,Chile-Bolivia,-20.93,-68.48
Ollag?e,Chile-Bolivia,-21.3,-68.18
"Azufre, Cerro del",Chile,-21.787,-68.237
San Pedro,Chile,-21.88,-68.4
Putana,Chile,-22.55,-67.85
Sairecabur,Chile-Bolivia,-22.72,-67.892
Licancabur,Chile-Bolivia,-22.83,-67.88
Guayaques,Chile-Bolivia,-22.895,-67.566
Purico Large cone(s),Chile,-23,-67.75
Colachi,Chile,-23.236,-67.645
Acamarachi,Chile,-23.3,-67.62
"Overo, Cerro",Chile,-23.52,-67.67
Chiliques,Chile,-23.58,-67.7
L?scar,Chile,-23.37,-67.73
Cord?n de Puntas Negras,Chile,-23.743,-67.534
Mi?iques,Chile,-23.82,-67.77
"Tujle, Cerro",Chile,-23.83,-67.95
Caichinque,Chile,-23.95,-67.73
Tilocalar,Chile,-23.97,-68.13
"Negrillar, El",Chile,-24.18,-68.25
Pular,Chile,-24.188,-68.054
"Negrillar, La",Chile,-24.28,-68.6
Socompa,Chile-Argentina,-24.4,-68.25
Llullaillaco,Chile-Argentina,-24.72,-68.53
"Escorial, Cerro",Chile-Argentina,-25.08,-68.37
Lastarria,Chile-Argentina,-25.17,-68.5
Cord?n del Azufre,Chile-Argentina,-25.33,-68.52
"Bayo, Cerro",Chile-Argentina,-25.42,-68.58
"Nevada, Sierra",Chile-Argentina,-26.48,-68.58
Falso Azufre,Chile-Argentina,-26.8,-68.37
"Incahuasi, Nevado de",Chile-Argentina,-27.042,-68.28
"Ojos del Salado, Nevados",Chile-Argentina,-27.12,-68.55
"Solo, El",Chile-Argentina,-27.108,-68.72
Copiap?,Chile,-27.3,-69.13
"Tuzgle, Cerro",Argentina,-24.05,-66.48
Aracar,Argentina,-24.25,-67.77
Unnamed,Argentina,-25.1,-68.27
Antofagasta de la Sierra,Argentina,-26.08,-67.5
"C?ndor, Cerro el",Argentina,-26.62,-68.35
Peinado,Argentina,-26.62,-68.15
Robledo,Argentina,-26.77,-67.72
Tipas,Argentina,-27.2,-68.55
San F?lix,Chile,-26.28,-80.12
Easter Island,Chile,-27.15,-109.38
Robinson Crusoe,Chile,-33.658,-78.85
Unnamed,Chile,-33.62,-76.83
Tupungatito,Chile-Argentina,-33.4,-69.8
San Jos?,Chile-Argentina,-33.782,-69.897
Maipo,Chile-Argentina,-34.161,-69.833
Palomo,Chile,-34.608,-70.295
"Atuel, Caldera(s) del",Argentina,-34.65,-70.05
Risco Plateado,Argentina,-34.93,-70
Tinguiririca,Chile,-34.814,-70.352
Planch?n-Peteroa,Chile,-35.24,-70.57
Infiernillo,Argentina,-35.142,-69.83
Calabozos,Chile,-35.558,-70.496
Descabezado Grande,Chile,-35.58,-70.75
"Azul, Cerro",Chile,-35.653,-70.761
"Maule, Laguna del",Chile,-36.02,-70.58
San Pedro-Pellado,Chile,-35.989,-70.849
"Longav?, Nevado de",Chile,-36.193,-71.161
"Blancas, Lomas",Chile,-36.286,-71.009
Resago,Chile,-36.45,-70.92
Pay?n Matru,Argentina,-36.42,-69.2
Domuyo,Argentina,-36.58,-70.42
"Chill?n, Nevados de",Chile,-36.863,-71.377
Cochiquito Volcanic Group,Argentina,-36.77,-69.82
Tromen,Argentina,-37.142,-70.03
Puesto Cortaderas,Argentina,-37.57,-69.62
Antuco,Chile,-37.406,-71.349
Trocon,Argentina,-37.73,-70.9
Copahue,Chile-Argentina,-37.85,-71.17
Callaqui,Chile,-37.92,-71.45
"Mari?aqui, Laguna",Chile,-38.27,-71.1
Tolguaca,Chile,-38.31,-71.645
Lonquimay,Chile,-38.377,-71.58
Tralihue,Argentina,-38.52,-70.9
"Blanca, Laguna",Argentina,-39.02,-70.37
Llaima,Chile,-38.692,-71.729
Sollipulli,Chile,-38.97,-71.52
Caburgua-Huelemolle,Chile,-39.25,-71.7
Villarrica,Chile,-39.42,-71.93
Quetrupillan,Chile,-39.5,-71.7
Lan?n,Chile-Argentina,-39.633,-71.5
Huanquihue Group,Argentina,-39.88,-71.58
Mocho-Choshuenco,Chile,-39.927,-72.027
Carr?n-Los Venados,Chile,-40.35,-72.07
Puyehue-Cord?n Caulle,Chile,-40.59,-72.117
"Pantoja, Cerro",Chile-Argentina,-40.77,-71.95
Antillanca Group,Chile,-40.771,-72.153
Puntiagudo-Cord?n Cenizos,Chile,-40.969,-72.264
Osorno,Chile,-41.1,-72.493
Tronador,Chile-Argentina,-41.157,-71.885
Cayutu?-La Viguer?a,Chile,-41.25,-72.27
Calbuco,Chile,-41.326,-72.614
Cuernos del Diablo,Chile,-41.4,-72
Yate,Chile,-41.755,-72.396
Hornopir?n,Chile,-41.874,-72.431
Apagado,Chile,-41.88,-72.58
Crater Basalt Volcanic Field,Argentina,-42.02,-70.18
Huequi,Chile,-42.377,-72.578
Minchinm?vida,Chile,-42.793,-72.439
Chait?n,Chile,-42.833,-72.646
Yanteles,Chile,-43.5,-72.8
Corcovado,Chile,-43.18,-72.8
Palena Volcanic Group,Chile,-43.78,-72.47
Melimoyu,Chile,-44.08,-72.88
Puyuhuapi,Chile,-44.3,-72.53
Mentolat,Chile,-44.7,-73.08
Cay,Chile,-45.059,-72.984
Maca,Chile,-45.1,-73.17
"Hudson, Cerro",Chile,-45.9,-72.97
R?o Murta,Chile,-46.17,-72.67
Arenales,Chile,-47.2,-73.48
Lautaro,Chile,-49.02,-73.55
Viedma,Argentina,-49.358,-73.28
Aguilera,Chile,-50.33,-73.75
Reclus,Chile,-50.964,-73.585
"Burney, Monte",Chile,-52.33,-73.4
Palei-Aike Volcanic Field,Chile-Argentina,-52,-70
Fueguino,Chile,-54.95,-70.25
Saba,Netherlands,17.63,-63.23
"Quill, The",Netherlands,17.478,-62.96
Liamuiga,Saint Kitts and Nevis,17.37,-62.8
Nevis Peak,Saint Kitts and Nevis,17.15,-62.58
Soufri?re Hills,United Kingdom,16.72,-62.18
Soufri?re Guadeloupe,France,16.05,-61.67
"Diables, Morne aux",Dominica,15.612,-61.43
"Diablotins, Morne",Dominica,15.503,-61.397
"Trois Pitons, Morne",Dominica,15.37,-61.33
"Watt, Morne",Dominica,15.307,-61.305
"Plat Pays, Morne",Dominica,15.255,-61.341
Pel?e,France,14.82,-61.17
Qualibou,Saint Lucia,13.83,-61.05
Soufri?re St. Vincent,Saint Vincent and the Grenadines,13.33,-61.18
Kick 'em Jenny,Grenada,12.3,-61.64
St. Catherine,Grenada,12.15,-61.67
Snaefellsj?kull,Iceland,64.8,-23.78
Helgrindur,Iceland,64.87,-23.25
Lj?sufj?ll,Iceland,64.87,-22.23
Reykjanes,Iceland,63.88,-22.5
Kr?suv?k,Iceland,63.93,-22.1
Brennisteinsfj?ll,Iceland,63.92,-21.83
Hengill,Iceland,64.08,-21.32
Hr?mundartindur,Iceland,64.073,-21.202
Gr?msnes,Iceland,64.03,-20.87
Prestahnukur,Iceland,64.6,-20.58
Hveravellir,Iceland,64.75,-19.98
Hofsj?kull,Iceland,64.78,-18.92
Vestmannaeyjar,Iceland,63.43,-20.28
Eyjafjallaj?kull,Iceland,63.63,-19.62
Katla,Iceland,63.63,-19.05
Tindfjallaj?kull,Iceland,63.78,-19.57
Torfaj?kull,Iceland,63.92,-19.17
Hekla,Iceland,63.98,-19.7
Gr?msv?tn,Iceland,64.42,-17.33
B?rdarbunga,Iceland,64.63,-17.53
Tungnafellsj?kull,Iceland,64.73,-17.92
Kverkfj?ll,Iceland,64.65,-16.72
Askja,Iceland,65.03,-16.75
Fremrinamur,Iceland,65.43,-16.65
Krafla,Iceland,65.73,-16.78
Theistareykjarbunga,Iceland,65.88,-16.83
Tj?rnes Fracture Zone,Iceland,66.3,-17.1
?raefaj?kull,Iceland,64,-16.65
Esjufj?ll,Iceland,64.27,-16.65
Kolbeinsey Ridge,Iceland,66.67,-18.5
Jan Mayen,Norway,71.08,-8.17
Unnamed,Undersea Features,88.27,-65.6
Unnamed,Undersea Features,85.58,85
Unnamed,Undersea Features,49,-34.5
Unnamed,Undersea Features,39.95,-25.83
Unnamed,Undersea Features,38.75,-38.08
Flores,Portugal,39.462,-31.216
Corvo,Portugal,39.699,-31.111
Fayal,Portugal,38.6,-28.73
Pico,Portugal,38.47,-28.4
San Jorge,Portugal,38.65,-28.08
Graciosa,Portugal,39.02,-27.97
Terceira,Portugal,38.73,-27.32
Don Joao de Castro Bank,Portugal,38.23,-26.63
Sete Cidades,Portugal,37.87,-25.78
Picos Volcanic System,Portugal,37.78,-25.67
Agua de Pau,Portugal,37.77,-25.47
Furnas,Portugal,37.77,-25.32
Monaco Bank,Portugal,37.6,-25.88
Madeira,Portugal,32.73,-16.97
La Palma,Spain,28.57,-17.83
Hierro,Spain,27.73,-18.03
Tenerife,Spain,28.271,-16.641
Gran Canaria,Spain,28,-15.58
Fuerteventura,Spain,28.358,-14.02
Lanzarote,Spain,29.03,-13.63
Fogo,Cape Verde,14.95,-24.35
Brava,Cape Verde,14.85,-24.72
Sao Vicente,Cape Verde,16.85,-24.97
Unnamed,Undersea Features,7,-21.83
Unnamed,Undersea Features,4.2,-21.45
Unnamed,Undersea Features,-0.72,-20.53
Unnamed,Undersea Features,-3.5,-24.5
Ascensi?n,United Kingdom,-7.95,-14.37
Trindade,Brazil,-20.514,-29.331
Unnamed,Undersea Features,-32.958,-5.22
Tristan da Cunha,United Kingdom,-37.092,-12.28
Nightingale Island,United Kingdom,-37.42,-12.48
Bouvet,Norway,-54.42,3.35
Thompson Island,Norway,-53.93,5.5
Buckle Island,Antarctica,-66.78,163.25
Young Island,Antarctica,-66.42,162.47
Sturge Island,Antarctica,-67.4,164.83
"Pleiades, The",Antarctica,-72.67,165.5
Unnamed,Antarctica,-73.45,164.58
Melbourne,Antarctica,-74.35,164.7
Unnamed,Antarctica,-76.83,163
"Morning, Mt.",Antarctica,-78.5,163.53
Erebus,Antarctica,-77.53,167.17
Royal Society Range,Antarctica,-78.25,163.33
Berlin,Antarctica,-76.05,-136
Andrus,Antarctica,-75.8,-132.33
Waesche,Antarctica,-77.17,-126.88
Siple,Antarctica,-73.43,-126.67
Toney Mountain,Antarctica,-75.8,-115.83
Takahe,Antarctica,-76.28,-112.08
Hudson Mountains,Antarctica,-74.33,-99.42
Peter I Island,Antarctica,-68.85,-90.58
Deception Island,Antarctica,-62.97,-60.65
Penguin Island,Antarctica,-62.1,-57.93
Bridgeman Island,Antarctica,-62.05,-56.75
Paulet,Antarctica,-63.58,-55.77
Seal Nunataks Group,Antarctica,-65.03,-60.05
Thule Islands,United Kingdom,-59.45,-27.37
Bristol Island,United Kingdom,-59.03,-26.58
Montagu Island,United Kingdom,-58.42,-26.33
Michael,United Kingdom,-57.78,-26.45
Candlemas Island,United Kingdom,-57.08,-26.67
Hodson,United Kingdom,-56.7,-27.15
Leskov Island,United Kingdom,-56.67,-28.13
Zavodovski,United Kingdom,-56.3,-27.57
Protector Shoal,United Kingdom,-55.92,-28.08
